city,lat,lng,venue,revenue,attendance,year
Los Angeles,34.0522,-118.2437,The Wiltern,1800000,8000,2023
New York,40.7128,-74.0060,Radio City,2500000,9000,2024
London,51.5074,-0.1278,O2 Arena,2200000,8500,2025
Tokyo,35.6895,139.6917,Budokan,6000000,12000,2025
Sydney,-33.8688,151.2093,Sydney Opera House,2900000,7000,2026
